     3.02           OBSERVATION DATA    M (MIXED)           RINEX VERSION / TYPE
NetR9 5.54          Receiver Operator   20250311 110426 UTC PGM / RUN BY / DATE
JNAV00VNM                                                   MARKER NAME
JNAV00VNM                                                   MARKER NUMBER
GEODETIC                                                    MARKER TYPE         
NAVIS               HUST                                    OBSERVER / AGENCY   
5426R48968          TRIMBLE NETR9       5.54                REC # / TYPE / VERS
                    TRM57971.00     NONE                    ANT # / TYPE
 -1626584.7059  5730519.4577  2271864.3917                  APPROX POSITION XYZ
        0.0000        0.0000        0.0000                  ANTENNA: DELTA H/E/N
G   12 C1C L1C S1C C2W L2W S2W C2X L2X S2X C5X L5X S5X      SYS / # / OBS TYPES
     1.000                                                  INTERVAL
  2025     3    11    11     4   26.0000000     GPS         TIME OF FIRST OBS
G L2X -0.25000                                              SYS / PHASE SHIFT   
R L1P  0.25000                                              SYS / PHASE SHIFT   
R L2C -0.25000                                              SYS / PHASE SHIFT   
J L2X  0.25000                                              SYS / PHASE SHIFT   
DBHZ                                                        SIGNAL STRENGTH UNIT
                                                            GLONASS COD/PHS/BIS 
                                                            END OF HEADER       
> 2025  3 11 11  4 26.0000000  0 12       -.000176313000
G05  21121943.648 7 110996768.81417        47.200    21121961.434 7  86491130.26417        46.500    21121961.516 7  86491043.25817        47.200
G19  21727214.859 7 114177559.83617        42.600    21727234.160 5  88969493.29915        31.200
G20  20583791.117 7 108168859.45917        47.100    20583804.109 6  84287516.75416        39.600
G17  24135431.016 5 126832517.82915        34.300    24135453.035 4  98830650.37814        25.600    24135452.230 6  98830587.35316        38.300
G12  21916687.547 7 115172963.69017        45.800    21916706.340 7  89745283.75117        43.300    21916705.977 7  89745236.74817        45.000
G06  22780231.617 6 119711104.33516        39.500    22780249.234 6  93281530.68616        36.100    22780248.906 7  93281438.67217        42.400    22780251.961 7  89394744.16417        47.300
G09  24512198.242 5 128812493.41115        31.900    24512215.840 4 100373784.51614        24.200    24512215.344 6 100373669.51916        36.600    24512216.867 6  96191495.89816        39.200
G22  25169627.633 4 132267290.07014        29.900
G13  23216474.094 6 122003569.49316        37.600    23216495.188 3  95067693.30713        20.900
G25  23428552.391 6 123117876.12116        38.100    23428573.660 5  95936081.28115        30.400    23428573.664 6  95936006.27316        38.600    23428576.973 7  91938635.68917        45.000
G15  25398904.773 5 133472186.54415        33.800    25398927.191 3 104004414.80113        22.200    25398926.293 5 104004330.75715        34.000
G11  21842867.539 7 114785245.77617        45.800    21842880.859 5  89443219.36615        34.700    21842880.262 7  89443142.36317        47.800    21842885.730 8  85716402.25118        51.000
> 2025  3 11 11  4 27.0000000  0 12       -.000176554000
G05  21121625.680 7 110995097.072 7        46.800    21121643.359 7  86489827.610 7        46.700    21121643.457 7  86489740.611 7        47.500
G19  21727575.391 7 114179453.221 7        42.600    21727594.379 5  88970968.659 5        31.900
G20  20583893.414 7 108169397.069 7        47.000    20583906.266 6  84287935.674 6        39.700
G17  24135876.313 5 126834860.910 5        34.500    24135898.969 4  98832476.165 4        25.800    24135898.148 6  98832413.176 6        38.100
G12  21916741.969 7 115173248.704 7        45.900    21916760.637 7  89745505.837 7        42.800    21916760.344 7  89745458.833 7        45.000
G06  22780353.258 6 119711745.894 6        39.800    22780371.316 5  93282030.599 5        35.900    22780371.133 7  93281938.596 7        42.800    22780374.082 7  89395223.262 7        47.400
G09  24512567.727 5 128814431.642 5        32.200    24512584.621 4 100375294.833 4        24.200    24512584.348 6 100375179.843 6        36.600    24512585.742 6  96192943.262 6        39.300
G22  25170155.305 4 132270059.792 4        29.400
G13  23215782.852 6 121999938.423 6        37.700    23215804.234 3  95064863.904 3        21.800
G25  23428299.516 6 123116550.651 6        37.800    23428321.488 4  95935048.446 4        29.700    23428321.301 6  95934973.445 6        38.500    23428324.777 7  91937645.889 7        44.900
G15  25398155.000 5 133468243.715 5        33.400    25398176.824 3 104001342.457 3        21.700    25398175.742 5 104001258.466 5        34.000
G11  21842833.352 7 114785065.952 7        45.300    21842846.391 5  89443079.239 5        34.900    21842846.207 7  89443002.238 7        47.900    21842851.563 8  85716267.961 8        51.000
> 2025  3 11 11  4 28.0000000  0 12       -.000176794000
G05  21121307.477 7 110993425.761 7        47.000    21121325.246 7  86488525.294 7        46.700    21121325.434 7  86488438.298 7        47.800
G19  21727935.422 7 114181347.002 7        42.500    21727954.879 5  88972444.328 5        32.600
G20  20583995.609 7 108169934.952 7        47.100    20584008.605 6  84288354.802 6        39.800
G17  24136322.602 5 126837204.206 5        34.800    24136344.715 4  98834302.128 4        25.700    24136344.266 6  98834239.144 6        37.400
G12  21916796.008 7 115173534.226 7        46.100    21916814.938 7  89745728.315 7        43.000    21916814.996 7  89745681.316 7        44.900
G06  22780476.195 6 119712387.394 6        40.100    22780493.316 6  93282530.464 6        36.600    22780493.242 7  93282438.468 7        42.500    22780496.078 7  89395702.307 7        47.200
G09  24512937.664 5 128816370.243 5        32.200    24512953.445 3 100376805.444 3        23.600    24512952.938 6 100376690.441 6        36.300    24512954.570 6  96194390.924 6        38.900
G22  25170681.688 5                        31.200
G13  23215091.305 6 121996307.301 6        38.100    23215113.223 3  95062034.454 3        20.400
G25  23428047.828 6 123115225.710 6        37.700    23428069.316 5  95934016.036 5        30.800    23428069.082 6  95933941.019 6        38.600    23428072.605 7  91936656.477 7        44.500
G15  25397403.859 5 133464300.678 5        33.800    25397426.488 3 103998269.984 3        21.700    25397425.438 5 103998185.982 5        34.200
G11  21842799.055 7 114784886.090 7        45.300    21842812.203 5  89442939.085 5        34.900    21842811.910 7  89442862.084 7        47.700    21842817.309 8  85716133.646 8        50.900
> 2025  3 11 11  4 29.0000000  0 12       -.000177032000
G05  21120989.578 7 110991754.956 7        47.000    21121007.297 7  86487223.376 7        46.800    21121007.418 7  86487136.379 7        47.800
G19  21728296.078 7 114183241.226 7        42.600    21728315.383 5  88973920.343 5        32.100
G20  20584098.391 7 108170473.173 7        47.000    20584111.141 6  84288774.196 6        39.700
G17  24136769.563 5 126839547.819 5        34.900    24136790.695 4  98836128.335 4        26.400    24136790.039 6  98836065.356 6        37.500
G12  21916850.570 7 115173820.339 7        45.800    21916869.289 7  89745951.255 7        42.500    21916869.355 7  89745904.253 7        45.000
G06  22780597.313 6 119713028.912 6        39.900    22780615.305 5  93283030.350 5        35.900    22780615.543 7  93282938.348 7        42.700    22780618.203 7  89396181.355 7        47.100
G09  24513306.969 5 128818309.305 5        31.200    24513322.445 4 100378316.413 4        25.600    24513321.730 6 100378201.394 6        36.100    24513323.395 6  96195838.921 6        39.300
G22  25171208.742 5                        30.700
G13  23214401.258 6 121992676.178 6        37.700    23214422.059 3  95059204.992 3        20.900
G25  23427795.656 6 123113901.319 6        37.700    23427817.461 5  95932984.035 5        30.700    23427816.941 6  95932909.024 6        38.500    23427820.605 7  91935667.483 7        44.700
G15  25396653.758 5 133460357.494 5        34.000    25396676.129 3 103995197.382 3        21.800    25396675.453 5 103995113.386 5        34.000
G11  21842764.734 7 114784706.253 7        45.400    21842777.945 5  89442798.951 5        34.900    21842777.953 8  89442721.952 8        48.100    21842783.043 8  85715999.352 8        50.800
> 2025  3 11 11  4 30.0000000  0 12       -.000177273000
G05  21120671.609 7 110990084.623 7        47.000    21120689.473 7  86485921.822 7        46.600    21120689.520 7  86485834.823 7        47.900
G19  21728656.484 7 114185135.888 7        42.500    21728675.957 5  88975396.694 5        32.600
G20  20584200.656 7 108171011.713 7        47.200    20584213.582 6  84289193.839 6        39.800
G17  24137215.680 5 126841891.689 5        34.800    24137236.734 4  98837954.755 4        27.400    24137235.598 6  98837891.762 6        37.800
G12  21916905.578 7 115174107.010 7        46.000    21916923.918 7  89746174.633 7        43.000    21916923.672 7  89746127.635 7        45.100
G06  22780719.320 6 119713670.402 6        40.000    22780737.402 5  93283530.204 5        35.200    22780737.496 7  93283438.208 7        42.600    22780740.277 7  89396660.389 7        47.100
G09  24513675.805 5 128820248.747 5        31.800    24513691.473 4 100379827.651 4        24.100    24513690.234 5 100379712.661 5        35.800    24513692.668 6  96197287.222 6        39.100
G22  25171734.977 5 132278367.954 5        31.200
G13  23213709.039 6 121989045.027 6        37.900    23213731.027 3  95056375.537 3        20.600
G25  23427544.328 6 123112577.496 6        37.800    23427565.613 5  95931952.473 5        30.000    23427565.320 6  95931877.465 6        38.500    23427568.680 7  91934678.902 7        44.900
G15  25395902.711 5 133456414.139 5        33.700    25395925.699 3 103992124.665 3        21.500    25395925.055 5 103992040.680 5        33.900
G11  21842731.078 7 114784526.427 7        45.900    21842743.832 5  89442658.826 5        34.800    21842743.793 7  89442581.823 7        47.900    21842748.871 8  85715865.065 8        50.800
> 2025  3 11 11  4 31.0000000  0 12       -.000177513000
G05  21120353.945 7 110988414.818 7        47.000    21120371.762 7  86484620.681 7        46.700    21120371.723 7  86484533.680 7        47.800
G19  21729017.344 7 114187031.039 7        43.100    21729036.715 5  88976873.433 5        32.300
G20  20584303.297 7 108171550.631 7        47.100    20584316.109 6  84289613.776 6        40.100
G17  24137661.625 5 126844235.886 5        35.200    24137682.840 4  98839781.424 4        27.100    24137681.668 6  98839718.434 6        37.800
G12  21916960.289 7 115174394.321 7        45.600    21916978.645 7  89746398.509 7        43.000    21916978.379 7  89746351.506 7        44.900
G06  22780842.148 6 119714311.940 6        40.100    22780859.336 5  93284030.097 5        35.800    22780859.613 7  93283938.109 7        42.700    22780862.324 7  89397139.456 7        47.000
G09  24514044.734 5 128822188.674 5        31.800    24514060.668 4 100381339.293 4        24.900    24514059.328 5 100381224.294 5        35.900    24514061.773 6  96198735.881 6        39.100
G22  25172260.953 5 132281137.074 5        30.500
G13  23213018.328 6 121985413.903 6        37.300    23213040.086 3  95053546.098 3        20.900
G25  23427291.758 6 123111254.261 6        37.700    23427313.754 5  95930921.380 5        30.900    23427313.465 6  95930846.378 6        39.000    23427316.879 7  91933690.774 7        45.100
G15  25395151.289 5 133452470.687 5        33.700    25395175.336 3 103989051.843 3        21.500    25395174.660 5 103988967.850 5        33.700
G11  21842696.719 7 114784346.665 7        45.600    21842709.672 5  89442518.755 5        34.700    21842709.703 8  89442441.751 8        48.000    21842714.664 8  85715730.828 8        50.900
> 2025  3 11 11  4 32.0000000  0 12       -.000177753000
G05  21120036.164 7 110986745.495 7        47.000    21120054.063 7  86483319.914 7        46.500    21120054.000 7  86483232.914 7        47.700
G19  21729378.000 7 114188926.635 7        42.600    21729397.395 5  88978350.519 5        32.300
G20  20584406.016 7 108172089.870 7        47.200    20584418.785 6  84290033.962 6        40.200
G17  24138106.938 5 126846580.362 5        34.800    24138129.027 4  98841608.301 4        27.100    24138128.281 6  98841545.308 6        37.900
G12  21917014.609 7 115174682.192 7        45.800    21917033.344 7  89746622.820 7        42.700    21917033.336 7  89746575.816 7        44.800
G06  22780964.047 6 119714953.479 6        40.000    22780981.492 5  93284530.001 5        35.100    22780982.125 7  93284437.998 7        42.400    22780984.488 7  89397618.518 7        47.100
G09  24514412.461 5 128824129.030 5        31.600    24514429.895 3 100382851.262 3        23.000    24514428.551 5 100382736.276 5        35.200    24514430.988 6  96200184.855 6        39.600
G22  25172788.469 5 132283906.043 5        30.800
G13  23212326.992 6 121981782.767 6        37.600    23212348.922 3  95050716.647 3        20.100
G25  23427040.281 6 123109931.591 6        37.700    23427061.824 5  95929890.712 5        30.600    23427061.809 6  95929815.720 6        38.600    23427065.254 7  91932703.061 7        44.600
G15  25394401.508 5 133448527.060 5        33.300    25394424.871 3 103985978.929 3        20.400    25394424.238 5 103985894.916 5        33.400
G11  21842662.531 7 114784166.921 7        45.500    21842675.449 5  89442378.689 5        34.700    21842675.246 7  89442301.688 7        47.900    21842680.387 8  85715596.600 8        51.000
> 2025  3 11 11  4 33.0000000  0 12       -.000177994000
G05  21119718.695 7 110985076.665 7        47.200    21119736.461 7  86482019.533 7        46.700    21119736.387 7  86481932.533 7        47.800
G19  21729739.070 7 114190822.678 7        42.900    21729758.133 5  88979827.949 5        32.400
G20  20584508.469 7 108172629.438 7        47.000    20584521.492 6  84290454.407 6        39.900
G17  24138553.484 5 126848925.110 5        34.700    24138575.238 4  98843435.404 4        26.400    24138574.813 6  98843372.407 6        37.900
G12  21917069.352 7 115174970.643 7        46.100    21917088.313 7  89746847.583 7        43.000    21917088.160 7  89746800.579 7        44.500
G06  22781086.164 6 119715594.996 6        40.100    22781103.680 5  93285029.873 5        35.400    22781104.172 7  93284937.880 7        42.200    22781106.613 7  89398097.572 7        47.200
G09  24514781.703 5 128826069.813 5        32.200    24514799.125 4 100384363.571 4        25.300    24514798.148 5 100384248.575 5        35.700    24514800.344 6  96201634.146 6        39.700
G22  25173315.273 5 132286674.825 5        31.000
G13  23211636.938 6 121978151.619 6        37.400    23211657.871 3  95047887.179 3        19.600
G25  23426788.867 6 123108609.470 6        37.500    23426810.105 5  95928860.490 5        30.200    23426810.031 6  95928785.488 6        38.700    23426813.652 7  91931715.756 7        44.600
G15  25393652.266 5 133444583.278 5        33.600    25393674.309 3 103982905.836 3        20.400    25393673.258 5 103982821.845 5        32.900
G11  21842628.328 7 114783987.192 7        45.700    21842641.215 5  89442238.637 5        35.100    21842640.941 7  89442161.637 7        47.800    21842646.180 8  85715462.386 8        50.900
> 2025  3 11 11  4 34.0000000  0 12       -.000178234000
G05  21119401.133 7 110983408.285 7        47.000    21119418.992 7  86480719.499 7        46.600    21119418.914 7  86480632.501 7        47.500
G19  21730099.773 7 114192719.141 7        42.900    21730118.855 5  88981305.707 5        32.500
G20  20584611.422 7 108173169.305 7        47.100    20584624.203 6  84290875.082 6        39.900
G17  24138999.273 5 126851270.119 5        34.600    24139021.418 4  98845262.701 4        26.500    24139020.746 6  98845199.703 6        37.500
G12  21917124.633 7 115175259.647 7        46.000    21917143.332 7  89747072.775 7        43.400    21917143.172 7  89747025.771 7        44.600
G06  22781208.164 6 119716236.485 6        40.000    22781225.660 5  93285529.735 5        35.900    22781226.004 7  93285437.734 7        42.100    22781228.625 7  89398576.602 7        46.900
G09  24515151.984 5 128828011.002 5        32.200    24515168.484 3 100385876.195 3        22.000    24515167.172 5 100385761.192 5        35.300    24515169.785 6  96203083.745 6        39.400
G22  25173841.844 5 132289443.429 5        31.200
G13  23210944.430 6 121974520.461 6        37.600    23210966.738 3  95045057.711 3        19.900
G25  23426537.094 6 123107287.891 6        37.900    23426558.602 5  95927830.683 5        30.200    23426558.445 6  95927755.676 6        38.500    23426562.133 7  91930728.853 7        44.900
G15  25392899.977 5 133440639.307 5        33.300    25392923.711 3 103979832.612 3        20.100    25392923.105 5 103979748.641 5        33.200
G11  21842593.414 7 114783807.456 7        45.600    21842606.969 5  89442098.583 5        34.100    21842606.883 8  89442021.581 8        48.200    21842612.035 8  85715328.167 8        50.600
> 2025  3 11 11  4 35.0000000  0 12       -.000178473000
G05  21119083.727 7 110981740.393 7        47.000    21119101.605 7  86479419.848 7        46.300    21119101.500 7  86479332.853 7        47.400
G19  21730460.414 7 114194616.059 7        42.700    21730479.953 5  88982783.821 5        32.700
G20  20584714.344 7 108173709.506 7        47.200    20584727.008 6  84291296.020 6        39.900
G17  24139444.313 5 126853615.398 5        34.500    24139467.637 4  98847090.218 4        24.600    24139467.305 6  98847027.218 6        37.000
G12  21917179.469 7 115175549.227 7        46.100    21917198.398 7  89747298.420 7        42.600    21917198.172 7  89747251.416 7        44.500
G06  22781329.469 6 119716877.971 6        39.900    22781347.816 5  93286029.593 5        35.600    22781348.457 7  93285937.593 7        42.400    22781350.691 7  89399055.632 7        47.000
G09  24515522.563 5 128829952.610 5        32.000    24515537.785 3 100387389.134 3        23.000    24515536.125 5 100387274.145 5        35.300    24515539.336 6  96204533.656 6        39.100
G22  25174367.859 5 132292211.884 5        30.300
G13  23210253.477 6 121970889.281 6        37.600    23210275.855 3  95042228.227 3        19.900
G25  23426285.719 6 123105966.867 6        37.600    23426307.223 5  95926801.309 5        30.800    23426306.840 6  95926726.301 6        38.700    23426310.695 7  91929742.369 7        45.000
G15  25392149.672 5 133436695.191 5        32.800    25392173.070 3 103976759.290 3        19.600    25392172.574 5 103976675.302 5        32.900
G11  21842559.313 7 114783627.739 7        45.600    21842572.930 5  89441958.548 5        34.600    21842572.598 8  89441881.544 8        48.200    21842577.816 8  85715193.963 8        50.800
> 2025  3 11 11  4 36.0000000  0 12       -.000178713000
G05  21118766.734 7 110980073.019 7        47.100    21118784.387 7  86478120.602 7        46.600    21118784.367 7  86478033.604 7        47.300
G19  21730821.156 7 114196513.448 7        42.500    21730841.070 5  88984262.299 5        32.200
G20  20584817.102 7 108174250.059 7        47.200    20584829.828 6  84291717.234 6        39.800
G17  24139891.688 5 126855961.000 5        34.500    24139913.926 4  98848917.979 4        25.600    24139913.281 6  98848854.993 6        36.800
G12  21917234.844 7 115175839.411 7        46.200    21917253.684 7  89747524.529 7        42.600    21917253.582 7  89747477.529 7        44.500
G06  22781452.094 6 119717519.474 6        39.900    22781470.031 5  93286529.463 5        35.700    22781470.332 7  93286437.464 7        42.400    22781472.789 7  89399534.675 7        47.200
G09  24515891.664 5 128831894.684 5        31.800    24515907.203 3 100388902.462 3        23.000    24515905.875 5 100388787.463 5        35.300    24515908.914 6  96205983.915 6        39.200
G22  25174895.781 5 132294980.191 5        31.000
G13  23209562.750 6 121967258.105 6        37.500    23209584.973 3  95039398.739 3        20.600
G25  23426034.656 6 123104646.412 6        37.600    23426055.953 5  95925772.378 5        31.200    23426055.609 6  95925697.377 6        38.700    23426059.469 7  91928756.310 7        45.000
G15  25391398.227 5 133432750.924 5        32.900    25391422.391 3 103973685.835 3        19.600    25391421.773 5 103973601.862 5        32.600
G11  21842525.141 7 114783448.062 7        45.800    21842538.566 5  89441818.536 5        34.400    21842538.496 8  89441741.538 8        48.100    21842543.660 8  85715059.790 8        51.100
> 2025  3 11 11  4 37.0000000  0 12       -.000178953000
G05  21118449.477 7 110978406.051 7        47.000    21118466.988 7  86476821.672 7        46.400    21118467.082 7  86476734.673 7        46.900
G19  21731182.586 7 114198411.200 7        42.600    21731202.199 5  88985741.065 5        31.900
G20  20584920.094 7 108174790.859 7        47.200    20584932.715 6  84292138.640 6        39.800
G17  24140337.719 5 126858306.797 5        34.600    24140360.410 4  98850745.902 4        25.400    24140359.813 6  98850682.902 6        36.800
G12  21917290.195 7 115176130.098 7        45.300    21917308.918 7  89747751.034 7        42.500    21917308.660 7  89747704.029 7        44.400
G06  22781574.875 6 119718160.907 6        39.800    22781592.000 5  93287029.278 5        35.400    22781592.188 7  93286937.274 7        42.400    22781594.891 7  89400013.656 7        46.900
G09  24516261.805 5 128833837.114 5        31.900    24516276.762 3 100390416.040 3        22.900    24516275.871 5 100390301.053 5        35.400    24516278.555 6  96207434.440 6        39.000
G22  25175422.102 5 132297748.275 5        31.200
G13  23208871.992 6 121963626.858 6        37.600    23208893.949 3  95036569.219 3        19.600
G25  23425783.336 6 123103326.445 6        37.700    23425804.719 5  95924743.838 5        31.100    23425804.805 6  95924668.829 6        38.600    23425808.262 7  91927770.618 7        45.100
G15  25390648.117 5 133428806.444 5        33.500    25390671.727 3 103970612.247 3        19.600    25390671.008 5 103970528.245 5        32.500
G11  21842490.930 7 114783268.335 7        46.000    21842504.527 5  89441678.494 5        34.800    21842504.445 8  89441601.488 8        48.200    21842509.496 8  85714925.578 8        50.700
> 2025  3 11 11  4 38.0000000  0 12       -.000179193000
G05  21118132.477 7 110976739.638 7        47.200    21118149.910 7  86475523.173 7        46.600    21118150.371 7  86475436.177 7        47.000
G19  21731544.172 7 114200309.470 7        42.800    21731563.543 5  88987220.233 5        31.900
G20  20585023.164 7 108175332.059 7        47.000    20585035.707 6  84292560.356 6        39.800
G17  24140783.664 5 126860652.937 5        34.700    24140806.730 4  98852574.091 4        26.000    24140806.418 6  98852511.090 6        37.000
G12  21917345.898 7 115176421.423 7        45.600    21917364.422 7  89747978.036 7        42.800    21917364.160 7  89747931.034 7        44.300
G06  22781696.844 6 119718802.389 6        39.900    22781714.078 6  93287529.141 6        36.200    22781714.469 7  93287437.131 7        42.700    22781716.918 7  89400492.686 7        47.000
G09  24516630.828 5 128835780.040 5        32.000    24516646.504 3 100391930.025 3        22.800    24516646.406 5 100391815.016 5        35.100    24516648.207 6  96208885.331 6        38.900
G22  25175949.141 5 132300516.281 5        31.200
G13  23208181.148 6 121959995.686 6        37.900    23208203.066 3  95033739.729 3        20.100
G25  23425532.828 6 123102007.103 6        37.700    23425553.676 5  95923715.776 5        30.400    23425553.863 6  95923640.765 6        38.700    23425557.168 7  91926785.398 7        45.200
G15  25389897.672 5 133424861.859 5        33.000    25389921.152 3 103967538.528 3        18.600    25389920.176 5 103967454.555 5        32.700
G11  21842456.445 7 114783088.694 7        46.200    21842470.297 5  89441538.512 5        34.900    21842470.113 8  89441461.503 8        48.100    21842475.273 8  85714791.427 8        50.600
> 2025  3 11 11  4 39.0000000  0 12       -.000179434000
G05  21117815.477 7 110975073.645 7        46.900    21117832.836 7  86474225.001 7        46.600    21117833.070 7  86474138.001 7        47.200
G19  21731905.492 7 114202208.127 7        42.600    21731924.984 5  88988699.699 5        32.700
G20  20585125.820 7 108175873.519 7        47.100    20585138.672 6  84292982.274 6        39.900
G17  24141231.625 5 126862999.294 5        34.600    24141253.066 4  98854402.447 4        26.000    24141252.609 6  98854339.451 6        37.600
G12  21917401.523 7 115176713.264 7        45.600    21917419.906 7  89748205.441 7        43.000    21917419.738 7  89748158.440 7        44.300
G06  22781818.063 6 119719443.801 6        39.900    22781836.195 5  93288028.932 5        35.800    22781836.484 7  93287936.933 7        42.600    22781839.008 7  89400971.666 7        47.100
G09  24516999.977 5 128837723.325 5        31.900    24517016.344 3 100393444.284 3        23.800    24517016.469 5 100393329.288 5        35.500    24517018.117 6  96210336.497 6        38.700
G22  25176475.203 5 132303284.049 5        30.800
G13  23207490.609 6 121956364.424 6        37.800    23207511.988 3  95030910.155 3        19.300
G25  23425281.570 6 123100688.263 6        37.700    23425302.754 5  95922688.101 5        30.900    23425302.938 6  95922613.093 6        39.000    23425306.227 7  91925800.539 7        45.100
G15  25389147.039 5 133420917.066 5        33.500    25389170.492 3 103964464.689 3        19.000    25389169.535 5 103964380.690 5        32.400
G11  21842423.172 7 114782909.006 7        45.800    21842436.012 5  89441398.495 5        35.200    21842435.910 8  89441321.487 8        48.600    21842441.094 8  85714657.242 8        50.500
> 2025  3 11 11  4 40.0000000  0 12       -.000179674000
G05  21117498.305 7 110973408.126 7        46.900    21117516.023 7  86472927.198 7        46.400    21117516.086 7  86472840.200 7        46.900
G19  21732266.328 7 114204107.232 7        42.600    21732286.129 5  88990179.519 5        31.900
G20  20585229.031 7 108176415.304 7        47.100    20585241.777 6  84293404.443 6        39.900
G17  24141677.852 5 126865345.932 5        34.600    24141699.457 4  98856231.014 4        26.000    24141699.121 6  98856168.010 6        37.600
G12  21917457.180 7 115177005.676 7        45.700    21917475.586 7  89748433.285 7        42.700    21917475.500 7  89748386.290 7        44.500
G06  22781939.977 6 119720085.218 6        39.800    22781958.102 5  93288528.737 5        35.400    22781958.340 7  93288436.729 7        42.400    22781961.027 7  89401450.635 7        47.000
G09  24517370.172 5 128839667.032 5        31.800    24517386.148 3 100394958.854 3        22.800    24517386.281 5 100394843.871 5        35.700    24517387.961 6  96211787.979 6        38.800
G22  25177001.695 5 132306051.655 5        30.100
G13  23206798.609 6 121952733.155 6        37.100    23206821.039 3  95028080.609 3        19.600
G25  23425030.109 6 123099369.969 6        37.600    23425051.980 5  95921660.859 5        31.000    23425051.891 6  95921585.854 6        39.200    23425055.402 7  91924816.100 7        44.700
G15  25388397.656 5 133416972.132 5        32.900    25388419.813 3 103961390.712 3        19.900    25388419.387 5 103961306.715 5        33.400
G11  21842388.813 7 114782729.330 7        45.700    21842401.766 5  89441258.483 5        34.900    21842402.000 8  89441181.481 8        48.300    21842406.930 8  85714523.071 8        50.500
> 2025  3 11 11  4 41.0000000  0 12       -.000179913000
G05  21117181.797 7 110971743.067 7        46.900    21117199.145 7  86471629.756 7        46.700    21117199.352 7  86471542.755 7        47.000
G19  21732628.328 7 114206006.763 7        42.800    21732647.449 5  88991659.667 5        32.700
G20  20585332.172 7 108176957.401 7        47.000    20585344.996 6  84293826.860 6        39.900
G17  24142123.625 5 126867692.840 5        34.800    24142145.965 4  98858059.798 4        24.900    24142145.813 6  98857996.803 6        37.300
G12  21917512.891 7 115177298.650 7        45.900    21917531.336 7  89748661.576 7        42.800    21917531.387 7  89748614.579 7        44.600
G06  22782062.992 6 119720726.596 6        39.800    22782080.168 6  93289028.507 6        36.000    22782080.426 7  93288936.507 7        42.500    22782083.105 7  89401929.589 7        47.200
G09  24517740.398 5 128841611.168 5        31.200    24517756.094 3 100396473.787 3        23.200    24517756.086 5 100396358.780 5        35.800    24517757.938 6  96213239.769 6        38.900
G22  25177530.070 5 132308819.032 5        31.000
G13  23206107.867 6 121949101.862 6        37.100    23206130.082 3  95025251.050 3        19.000
G25  23424780.180 6 123098052.218 6        37.600    23424801.281 5  95920634.038 5        30.500    23424801.289 6  95920559.024 6        39.500    23424804.586 7  91923832.056 7        45.100
G15  25387646.203 5 133413027.016 5        33.100    25387668.949 3 103958316.611 3        19.300    25387669.023 5 103958232.611 5        32.900
G11  21842354.742 7 114782549.661 7        45.500    21842367.637 5  89441118.485 5        35.800    21842367.574 8  89441041.476 8        48.300    21842372.754 8  85714388.899 8        50.800
> 2025  3 11 11  4 42.0000000  0 12       -.000180153000
G05  21116864.773 7 110970078.483 7        47.000    21116882.316 7  86470332.681 7        46.600    21116882.637 7  86470245.681 7        47.200
G19  21732989.805 7 114207906.735 7        42.600    21733009.094 5  88993140.161 5        32.600
G20  20585435.117 7 108177499.823 7        47.000    20585448.195 6  84294249.526 6        40.000
G17  24142570.367 5 126870040.039 5        35.100    24142592.656 4  98859888.794 4        26.700    24142592.133 6  98859825.804 6        37.300
G12  21917568.469 7 115177592.203 7        46.100    21917587.211 7  89748890.311 7        42.700    21917587.328 7  89748843.319 7        44.500
G06  22782184.148 6 119721367.994 6        40.300    22782202.246 5  93289528.292 5        35.800    22782202.430 7  93289436.282 7        42.600    22782205.195 7  89402408.540 7        47.700
G09  24518109.438 5 128843555.723 5        31.600    24518126.102 3 100397989.020 3        22.600    24518126.289 5 100397874.022 5        35.700    24518127.973 6  96214691.879 6        39.200
G22  25178056.688 5 132311586.36315        30.100
G13  23205416.789 6 121945470.564 6        37.500    23205439.063 3  95022421.445 3        19.900
G25  23424529.133 6 123096735.019 6        37.800    23424550.559 5  95919607.639 5        31.400    23424550.691 6  95919532.637 6        39.400    23424553.953 7  91922848.430 7        44.700
G15  25386894.172 5 133409081.724 5        32.900    25386918.109 3 103955242.369 3        19.600    25386918.266 5 103955158.376 5        32.800
G11  21842320.344 7 114782370.012 7        45.600    21842333.496 5  89440978.493 5        35.800    21842333.465 8  89440901.488 8        48.700    21842338.570 8  85714254.744 8        50.900
> 2025  3 11 11  4 43.0000000  0 12       -.000180393000
G05  21116548.227 7 110968414.371 7        47.200    21116565.645 7  86469035.974 7        46.600    21116565.746 7  86468948.973 7        47.300
G19  21733351.359 7 114209807.144 7        42.600    21733370.641 5  88994620.995 5        32.500
G20  20585538.375 7 108178042.563 7        47.100    20585551.559 6  84294672.444 6        39.700
G17  24143017.461 5 126872387.484 5        35.300    24143039.391 4  98861717.992 4        25.600    24143038.426 6  98861654.995 6        37.300
G12  21917624.500 7 115177886.325 7        45.700    21917643.145 7  89749119.494 7        43.000    21917643.359 7  89749072.492 7        44.700
G06  22782306.828 6 119722009.354 6        40.100    22782324.297 5  93290028.048 5        35.900    22782324.223 7  93289936.047 7        42.700    22782327.152 7  89402887.477 7        47.100
G09  24518480.055 5 128845500.697 5        31.500    24518496.020 3 100399504.583 3        22.900    24518496.711 5 100399389.592 5        35.500    24518497.984 6  96216144.302 6        39.500
G22  25178581.969 4 132314353.444 4        29.600
G13  23204726.023 6 121941839.236 6        37.600    23204748.160 3  95019591.848 3        20.900
G25  23424278.711 6 123095418.379 6        37.500    23424299.965 5  95918581.677 5        30.900    23424300.449 6  95918506.669 6        39.400    23424303.477 7  91921865.216 7        44.900
G15  25386144.469 5 133405136.285 5        32.400    25386167.441 3 103952168.007 3        19.600    25386166.668 5 103952084.015 5        33.100
G11  21842285.734 7 114782190.367 7        45.000    21842299.297 5  89440838.512 5        34.700    21842299.191 8  89440761.507 8        48.500    21842304.316 8  85714120.594 8        50.700
> 2025  3 11 11  4 44.0000000  0 12       -.000180634000
G05  21116231.555 7 110966750.745 7        47.200    21116249.063 7  86467739.646 7        46.700    21116249.215 7  86467652.648 7        47.400
G19  21733713.055 7 114211708.016 7        43.000    21733732.336 5  88996102.191 5        33.200
G20  20585641.828 7 108178585.644 7        47.000    20585654.801 6  84295095.622 6        39.700
G17  24143464.461 5 126874735.222 5        35.400    24143486.148 4  98863547.413 4        26.900    24143484.930 6  98863484.419 6        37.100
G12  21917680.820 7 115178181.029 7        45.600    21917699.211 7  89749349.129 7        43.200    21917699.375 7  89749302.128 7        44.700
G06  22782428.859 6 119722650.725 6        39.800    22782446.277 5  93290527.817 5        35.400    22782446.316 7  93290435.813 7        42.400    22782449.246 7  89403366.420 7        47.100
G09  24518850.016 5 128847446.097 5        30.800    24518866.098 3 100401020.481 3        23.000    24518866.242 5 100400905.505 5        35.500    24518868.266 6  96217597.042 6        39.100
G22  25179108.289 4 132317120.406 4        29.900
G13  23204034.578 6 121938207.923 6        37.400    23204057.160 3  95016762.241 3        19.900
G25  23424028.758 6 123094102.300 6        37.700    23424049.473 5  95917556.156 5        31.200    23424049.695 6  95917481.150 6        39.400    23424052.977 7  91920882.424 7        45.100
G15  25385393.500 5 133401190.694 5        32.600    25385416.609 3 103949093.576 3        20.900    25385416.012 5 103949009.547 5        33.600
G11  21842251.578 7 114782010.753 7        45.400    21842265.004 5  89440698.553 5        34.900    21842264.949 8  89440621.548 8        48.500    21842270.109 8  85713986.466 8        50.700
> 2025  3 11 11  4 45.0000000  0 12       -.000180874000
G05  21115914.828 7 110965087.587 7        47.500    21115932.684 7  86466443.684 7        46.500    21115932.730 7  86466356.684 7        47.700
G19  21734075.227 7 114213609.313 7        42.800    21734094.348 5  88997583.711 5        33.000
G20  20585745.305 7 108179129.034 7        47.100    20585758.207 6  84295519.044 6        39.700
G17  24143911.961 5 126877083.229 5        35.400    24143933.074 4  98865377.051 4        27.400    24143932.254 6  98865314.055 6        37.000
G12  21917737.313 7 115178476.284 7        45.400    21917755.387 7  89749579.191 7        43.500    21917755.281 7  89749532.197 7        44.700
G06  22782551.164 6 119723292.077 6        39.800    22782568.340 5  93291027.563 5        35.400    22782568.375 7  93290935.566 7        42.100    22782571.301 7  89403845.346 7        47.200
G09  24519219.891 5 128849391.933 5        30.800    24519236.398 3 100402536.726 3        22.500    24519236.102 5 100402421.729 5        35.500    24519238.594 6  96219050.111 6        39.100
G22  25179635.250 4 132319887.170 4        29.900
G13  23203343.805 6 121934576.575 6        37.500    23203366.129 3  95013932.629 3        19.000
G25  23423778.750 6 123092786.748 6        37.800    23423799.270 5  95916531.051 5        31.700    23423798.969 6  95916456.046 6        39.100    23423802.668 7  91919900.028 7        45.500
G15  25384641.195 5 133397244.919 5        32.500    25384665.727 3 103946018.965 3        20.400    25384664.969 5 103945934.950 5        33.100
G11  21842217.992 7 114781831.138 7        45.700    21842230.789 5  89440558.592 5        35.100    21842230.746 8  89440481.585 8        48.300    21842235.996 8  85713852.334 8        50.600
> 2025  3 11 11  4 46.0000000  0 12       -.000181114000
G05  21115598.516 7 110963424.841 7        47.100    21115616.105 7  86465148.044 7        46.600    21115616.473 7  86465061.041 7        47.400
G19  21734436.969 7 114215510.977 7        43.000    21734456.215 5  88999065.526 5        32.600
G20  20585848.922 7 108179672.671 7        47.200    20585861.633 6  84295942.658 6        40.000
G17  24144358.023 5 126879431.433 5        35.500    24144379.801 4  98867206.830 4        27.000    24144378.973 6  98867143.843 6        37.000
G12  21917793.141 7 115178772.042 7        45.800    21917811.719 7  89749809.650 7        42.700    21917811.883 7  89749762.647 7        45.000
G06  22782673.383 6 119723933.337 6        39.600    22782690.379 5  93291527.249 5        35.800    22782690.313 7  93291435.250 7        42.300    22782693.348 7  89404324.207 7        47.200
G09  24519590.031 5 128851338.107 5        31.600    24519606.785 3 100404053.237 3        22.000    24519606.715 5 100403938.231 5        35.900    24519608.945 6  96220503.418 6        39.000
G22  25180161.414 4                        29.400
G13  23202653.266 6 121930945.134 6        37.600    23202675.141 3  95011102.967 3        19.000
G25  23423527.859 6 123091471.682 6        37.900    23423549.180 5  95915506.315 5        31.800    23423548.910 6  95915431.318 6        38.900    23423552.402 7  91918917.996 7        45.500
G15  25383890.477 5 133393298.942 5        33.300    25383915.008 3 103942944.157 3        20.400    25383914.438 5 103942860.171 5        33.700
G11  21842183.523 7 114781651.459 7        45.800    21842196.645 5  89440418.579 5        35.400    21842196.609 8  89440341.577 8        48.800    21842201.777 8  85713718.160 8        50.500
> 2025  3 11 11  4 47.0000000  0 12       -.000181355000
G05  21115282.367 7 110961762.573 7        46.700    21115299.777 7  86463852.774 7        46.500    21115299.957 7  86463765.776 7        47.700
G19  21734798.797 7 114217413.067 7        42.800    21734817.938 5  89000547.674 5        32.600
G20  20585952.391 7 108180216.620 7        47.100    20585965.203 6  84296366.514 6        39.800
G17  24144805.500 5 126881779.890 5        35.500    24144826.668 4  98869036.814 4        27.600    24144826.020 6  98868973.828 6        37.200
G12  21917849.719 7 115179068.358 7        45.800    21917868.023 7  89750040.543 7        42.800    21917868.156 7  89749993.538 7        45.000
G06  22782794.414 6 119724574.576 6        39.900    22782812.438 5  93292026.909 5        35.600    22782812.359 7  93291934.909 7        42.000    22782815.352 7  89404803.050 7        47.200
G09  24519961.664 5 128853284.677 5        31.600    24519977.191 3 100405570.047 3        21.800    24519977.793 5 100405455.059 5        35.800    24519979.449 6  96221957.044 6        39.200
G22  25180687.344 4 132325420.05814        27.600
G13  23201961.984 6 121927313.666 6        37.100    23201984.012 3  95008273.263 3        20.100
G25  23423278.023 6 123090157.165 6        37.900    23423298.902 5  95914482.010 5        30.600    23423299.133 6  95914407.009 6        38.800    23423302.207 7  91917936.367 7        45.300
G15  25383140.203 5 133389352.778 5        33.400    25383164.059 3 103939869.253 3        20.100    25383163.867 5 103939785.255 5        33.300
G11  21842149.633 7 114781471.785 7        45.800    21842162.566 5  89440278.571 5        35.500    21842162.281 8  89440201.576 8        48.400    21842167.613 8  85713583.989 8        50.700
> 2025  3 11 11  4 48.0000000  0 12       -.000181593000
G05  21114966.102 7 110960100.808 7        47.100    21114983.625 7  86462557.894 7        46.900    21114983.652 7  86462470.898 7        47.600
G19  21735160.906 7 114219315.628 7        42.800    21735179.938 5  89002030.184 5        32.800
G20  20586056.156 7 108180760.915 7        47.300    20586068.770 6  84296790.645 6        39.900
G17  24145252.875 5 126884128.649 5        35.000    24145273.453 4  98870867.049 4        27.500    24145272.738 6  98870804.064 6        37.200
G12  21917905.922 7 115179365.272 7        46.000    21917924.520 7  89750271.898 7        42.700    21917924.492 7  89750224.900 7        45.100
G06  22782916.641 6 119725215.839 6        39.900    22782934.508 5  93292526.595 5        35.900    22782934.594 7  93292434.591 7        42.400    22782937.426 7  89405281.911 7        47.500
G09  24520333.664 5 128855231.709 5        31.900    24520347.688 3 100407087.222 3        22.600    24520348.027 6 100406972.225 6        36.000    24520349.961 6  96223410.998 6        39.600
G22  25181212.797 4                        28.900
G13  23201270.492 6 121923682.221 6        37.300    23201293.059 3  95005443.557 3        20.100
G25  23423027.219 6 123088843.224 6        37.400    23423048.922 5  95913458.154 5        31.400    23423049.078 6  95913383.143 6        38.400    23423052.293 7  91916955.169 7        45.500
G15  25382389.273 5 133385406.510 5        32.900    25382413.113 3 103936794.251 3        19.900    25382413.152 5 103936710.254 5        33.200
G11  21842115.359 7 114781292.156 7        46.000    21842128.305 5  89440138.599 5        34.800    21842128.242 8  89440061.599 8        48.200    21842133.453 8  85713449.848 8        50.400
> 2025  3 11 11  4 49.0000000  0 12       -.000181833000
G05  21114650.016 7 110958439.494 7        47.200    21114667.512 7  86461263.371 7        46.600    21114667.520 8  86461176.371 8        48.000
G19  21735523.258 7 114221218.609 7        42.700    21735542.211 5  89003513.022 5        32.100
G20  20586159.633 7 108181305.518 7        47.800    20586172.383 6  84297215.012 6        39.900
G17  24145698.813 5 126886477.679 5        35.000    24145720.594 4  98872697.492 4        26.000    24145719.422 6  98872634.486 6        36.800
G12  21917962.711 7 115179662.754 7        46.300    21917981.125 7  89750503.697 7        43.100    21917981.316 7  89750456.698 7        44.300
G06  22783038.789 6 119725857.073 6        39.900    22783056.426 5  93293026.251 5        35.700    22783056.961 7  93292934.250 7        42.600    22783059.379 7  89405760.756 7        47.200
G09  24520702.844 5 128857179.141 5        31.900    24520718.324 3 100408604.712 3        22.900    24520718.105 5 100408489.714 5        35.700    24520720.574 6  96224865.262 6        39.400
G22  25181740.813 4 132330952.393 4        29.100
G13  23200580.250 6 121920050.746 6        37.800    23200601.984 3  95002613.836 3        19.900
G25  23422777.148 6 123087529.815 6        37.300    23422799.031 5  95912434.722 5        31.400    23422798.891 6  95912359.711 6        38.700    23422802.422 7  91915974.379 7        45.400
G15  25381638.680 5 133381460.063 5        33.700    25381662.090 3 103933719.108 3        19.900    25381662.176 5 103933635.108 5        32.800
G11  21842081.203 7 114781112.528 7        46.200    21842094.090 5  89439998.633 5        34.900    21842093.941 7  89439921.629 7        47.900    21842099.297 8  85713315.710 8        50.600
> 2025  3 11 11  4 50.0000000  0 12       -.000182074000
G05  21114333.945 7 110956778.660 7        47.200    21114351.469 7  86459969.220 7        46.500    21114351.566 7  86459882.220 7        47.400
G19  21735885.531 7 114223122.042 7        42.700    21735904.418 5  89004996.205 5        32.100
G20  20586263.453 7 108181850.448 7        47.200    20586276.055 6  84297639.635 6        39.800
G17  24146145.813 5 126888826.979 5        35.200    24146167.680 4  98874528.133 4        26.400    24146166.914 6  98874465.135 6        37.500
G12  21918019.516 7 115179960.802 7        46.000    21918037.883 7  89750735.939 7        42.600    21918037.582 7  89750688.941 7        44.500
G06  22783160.055 6 119726498.299 6        40.000    22783178.387 5  93293525.905 5        35.900    22783178.684 7  93293433.907 7        42.500    22783181.453 7  89406239.589 7        47.500
G09  24521073.594 5 128859127.006 5        31.300    24521089.008 3 100410122.533 3        22.600    24521088.266 5 100410007.535 5        35.600    24521091.406 6  96226319.843 6        39.400
G22  25182267.055 4 132333718.26814        28.000
G13  23199889.500 6 121916419.267 6        37.900    23199910.836 3  94999784.103 3        21.100
G25  23422526.961 6 123086216.971 6        37.500    23422549.227 5  95911411.723 5        30.600    23422549.242 6  95911336.715 6        38.300    23422552.539 7  91914993.996 7        45.100
G15  25380888.344 5 133377513.446 5        33.800    25380911.113 3 103930643.809 3        19.600    25380911.223 5 103930559.832 5        32.700
G11  21842046.492 7 114780932.913 7        46.300    21842059.934 5  89439858.668 5        34.400    21842059.867 7  89439781.668 7        47.500    21842065.145 8  85713181.580 8        50.600
> 2025  3 11 11  4 51.0000000  0 12       -.000182314000
G05  21114017.836 7 110955118.334 7        46.900    21114035.473 7  86458675.464 7        46.300    21114035.559 7  86458588.465 7        47.300
G19  21736247.984 7 114225025.947 7        42.700    21736266.754 5  89006479.764 5        32.000
G20  20586367.180 7 108182395.724 7        47.200    20586379.809 6  84298064.528 6        40.100
G17  24146593.672 5 126891176.592 5        35.000    24146614.836 4  98876359.031 4        26.500    24146614.191 6  98876296.013 6        37.700
G12  21918075.984 7 115180259.449 7        45.600    21918094.762 7  89750968.645 7        42.600    21918094.664 7  89750921.644 7        44.700
G06  22783282.750 6 119727139.548 6        39.600    22783300.418 6  93294025.575 6        36.300    22783300.781 7  93293933.573 7        42.300    22783303.473 7  89406718.434 7        47.600
G09  24521444.305 5 128861075.323 5        31.500    24521459.848 4 100411640.702 4        24.100    24521459.133 6 100411525.713 6        36.000    24521462.039 6  96227774.758 6        39.700
G22  25182793.711 4 132336484.027 4        29.600
G13  23199198.250 6 121912787.831 6        38.300    23199219.719 3  94996954.416 3        20.400
G25  23422277.672 6 123084904.701 6        37.800    23422299.641 5  95910389.167 5        31.000    23422299.141 6  95910314.158 6        38.300    23422302.793 7  91914014.051 7        45.100
G15  25380137.953 5 133373566.709 5        34.500    25380159.984 3 103927568.476 3        19.900    25380159.547 5 103927484.456 5        33.200
G11  21842012.727 7 114780753.341 7        45.400    21842025.730 5  89439718.743 5        35.000    21842025.602 7  89439641.741 7        47.600    21842030.902 8  85713047.483 8        50.700
> 2025  3 11 11  4 52.0000000  0 12       -.000182554000
G05  21113701.992 7 110953458.548 7        47.000    21113719.602 7  86457382.129 7        46.800    21113719.754 7  86457295.133 7        46.800
G19  21736610.094 7 114226930.349 7        42.700    21736629.129 5  89007963.714 5        32.000
G20  20586470.906 7 108182941.382 7        47.100    20586483.680 6  84298489.718 6        39.800
G17  24147040.820 5 126893526.529 5        35.000    24147062.020 4  98878190.166 4        25.800    24147061.332 6  98878127.157 6        37.900
G12  21918133.156 7 115180558.729 7        45.800    21918151.688 7  89751201.844 7        43.400    21918151.781 7  89751154.841 7        44.600
G06  22783404.672 6 119727780.842 6        39.800    22783422.410 5  93294525.284 5        35.900    22783423.227 7  93294433.279 7        42.500    22783425.477 7  89407197.317 7        47.300
G09  24521814.469 5                        31.600    24521830.555 3                        22.600    24521830.617 6 100413044.267 6        36.500    24521832.867 6  96229230.040 6        39.700
G22  25183320.805 4 132339249.662 4        29.400
G13  23198507.320 6 121909156.440 6        38.200    23198528.605 3  94994124.781 3        20.100
G25  23422027.797 6 123083593.041 6        37.500    23422050.063 5  95909367.091 5        30.300    23422049.500 6  95909292.088 6        38.700    23422053.262 7  91913034.569 7        44.700
G15  25379387.031 5 133369619.843 5        34.400    25379408.797 3 103924492.986 3        20.400    25379408.301 5 103924409.000 5        33.200
G11  21841978.461 7 114780573.845 7        45.800    21841991.555 5  89439578.877 5        34.700    21841991.574 7  89439501.871 7        47.600    21841996.805 8  85712913.440 8        50.700
> 2025  3 11 11  4 53.0000000  0 12       -.000182795000
G05  21113386.266 7 110951799.246 7        47.000    21113403.848 7  86456089.173 7        46.600    21113404.055 7  86456002.173 7        46.900
G19  21736972.453 7 114228835.208 7        42.700    21736991.770 5  89009448.019 5        31.500
G20  20586574.719 7 108183487.376 7        47.000    20586587.637 6  84298915.169 6        40.200
G17  24147488.203 5 126895876.751 5        35.000    24147509.238 4  98880021.519 4        27.200    24147508.477 6  98879958.523 6        37.600
G12  21918190.117 7 115180858.586 7        45.800    21918208.762 7  89751435.493 7        42.900    21918208.598 7  89751388.495 7        44.900
G06  22783527.078 6 119728422.137 6        40.700    22783544.422 5  93295024.989 5        35.500    22783545.445 7  93294932.984 7        42.500    22783547.594 7  89407676.204 7        47.200
G09  24522186.023 5 128864973.354 5        31.000    24522201.500 3 100414678.163 3        22.200    24522201.949 6 100414563.154 6        36.200    24522203.770 6  96230685.651 6        39.700
G22  25183845.773 4 132342015.155 4        29.400
G13  23197815.438 6 121905525.034 6        38.100    23197837.547 3  94991295.085 3        19.300
G25  23421777.961 6 123082281.959 6        37.500    23421800.531 5  95908345.459 5        30.400    23421799.992 6  95908270.456 6        38.000    23421803.742 7  91912055.499 7        44.900
G15  25378635.844 5 133365672.855 5        34.300    25378657.680 3 103921417.440 3        19.900    25378657.535 5 103921333.420 5        32.600
G11  21841944.367 7 114780394.370 7        45.200    21841957.461 5  89439439.026 5        34.600    21841957.031 7  89439362.021 7        47.800    21841962.613 8  85712779.417 8        50.700
> 2025  3 11 11  4 54.0000000  0 12       -.000183035000
G05  21113070.109 7 110950140.413 7        46.900    21113088.129 7  86454796.580 7        46.300    21113088.297 7  86454709.581 7        47.300
G19  21737335.344 7 114230740.495 7        43.200    21737354.344 5  89010932.648 5        32.400
G20  20586678.602 7 108184033.690 7        47.100    20586691.594 6  84299340.866 6        40.300
G17  24147934.602 5 126898227.252 5        35.400    24147956.430 4  98881853.115 4        26.600    24147955.996 6  98881790.102 6        37.300
G12  21918247.250 7 115181159.013 7        45.500    21918265.973 7  89751669.587 7        42.900    21918265.766 7  89751622.589 7        45.100
G06  22783649.602 6 119729063.419 6        40.100    22783666.492 5  93295524.684 5        35.800    22783667.410 7  93295432.681 7        42.300    22783669.543 7  89408155.080 7        47.100
G09  24522557.125 5 128866923.038 5        30.800    24522572.641 3 100416197.394 3        22.500    24522572.809 6 100416082.383 6        36.600    24522574.820 6  96232141.568 6        39.900
G22  25184371.633 5 132344780.456 5        30.100
G13  23197124.523 6 121901893.622 6        38.400    23197146.551 3  94988465.419 3        19.600
G25  23421529.688 6 123080971.408 6        37.600    23421551.086 5  95907324.252 5        30.800    23421550.637 6  95907249.250 6        38.000    23421554.395 7  91911076.843 7        45.000
G15  25377884.477 5 133361725.669 5        34.300    25377906.676 3 103918341.709 3        19.600    25377905.938 5 103918257.689 5        33.200
G11  21841910.055 7 114780214.910 7        45.000    21841923.395 5  89439299.182 5        34.900    21841922.918 7  89439222.177 7        47.800    21841928.430 8  85712645.403 8        50.900
> 2025  3 11 11  4 55.0000000  0 12       -.000183275000
G05  21112754.836 7 110948482.066 7        47.200    21112772.617 7  86453504.366 7        46.700    21112772.652 7  86453417.368 7        47.300
G19  21737697.938 7 114232646.233 7        43.000    21737716.938 5  89012417.637 5        31.700
G20  20586782.391 7 108184580.329 7        47.100    20586795.426 6  84299766.822 6        40.400
G17  24148381.891 5 126900578.034 5        34.800    24148403.703 4  98883684.896 4        25.600    24148403.109 6  98883621.899 6        37.200
G12  21918304.734 7 115181460.020 7        45.800    21918323.328 7  89751904.134 7        42.600    21918322.988 7  89751857.135 7        44.900
G06  22783771.656 6 119729704.698 6        39.800    22783788.594 6  93296024.378 6        36.000    22783789.297 7  93295932.382 7        42.100    22783791.539 7  89408633.960 7        47.100
G09  24522926.719 5 128868873.109 5        31.200    24522943.883 3 100417716.938 3        22.300    24522943.488 6 100417601.940 6        36.600    24522945.926 6  96233597.811 6        39.900
G22  25184898.141 5                        30.300
G13  23196433.523 6 121898262.188 6        37.300    23196455.570 3  94985635.754 3        19.300
G25  23421281.195 6 123079661.447 6        37.600    23421301.727 5  95906303.495 5        31.600    23421301.508 6  95906228.485 6        38.100    23421305.230 7  91910098.610 7        44.900
G15  25377133.578 5 133357778.343 5        34.500    25377155.508 3 103915265.866 3        19.900    25377154.789 5 103915181.875 5        32.600
G11  21841875.852 7 114780035.471 7        45.100    21841889.195 5  89439159.359 5        35.000    21841889.066 8  89439082.354 8        48.000    21841894.340 8  85712511.404 8        50.900
> 2025  3 11 11  4 56.0000000  0 12       -.000183516000
G05  21112439.563 7 110946824.201 7        47.100    21112457.027 7  86452212.528 7        46.600    21112457.051 7  86452125.533 7        47.200
G19  21738060.422 7 114234552.420 7        43.000    21738079.641 5  89013902.971 5        32.100
G20  20586886.898 7 108185127.298 7        47.100    20586899.680 6  84300193.031 6        40.500
G17  24148829.211 5 126902929.077 5        35.300    24148851.004 4  98885516.898 4        26.400    24148850.500 6  98885453.906 6        37.300
G12  21918362.063 7 115181761.598 7        45.900    21918380.707 7  89752139.126 7        43.000    21918380.434 7  89752092.125 7        44.900
G06  22783892.523 6 119730345.991 6        39.900    22783910.676 5  93296524.082 5        35.400    22783911.125 7  93296432.078 7        42.300    22783913.594 7  89409112.830 7        46.800
G09  24523297.711 5 128870823.633 5        31.500    24523315.102 3 100419236.822 3        22.500    24523314.777 6 100419121.817 6        36.800    24523317.234 6  96235054.370 6        39.800
G22  25185424.922 5 132350310.629 5        30.100
G13  23195742.273 6 121894630.749 6        38.000    23195764.523 3  94982806.057 3        20.100
G25  23421031.531 6 123078352.022 6        37.600    23421052.438 5  95905283.160 5        30.600    23421052.520 6  95905208.154 6        38.300    23421055.945 7  91909120.788 7        44.800
G15  25376382.695 5 133353830.868 5        34.900    25376404.230 3 103912189.921 3        20.400    25376403.324 5 103912105.912 5        33.100
G11  21841841.734 7 114779856.050 7        45.000    21841854.949 5  89439019.550 5        35.300    21841855.082 7  89438942.543 7        47.900    21841860.227 8  85712377.419 8        51.100
> 2025  3 11 11  4 57.0000000  0 12       -.000183754000
G05  21112123.914 7 110945166.818 7        47.300    21112141.656 7  86450921.064 7        46.400    21112141.738 7  86450834.065 7        47.300
G19  21738423.719 7 114236459.050 7        43.000    21738442.293 5  89015388.651 5        32.200
G20  20586991.063 7 108185674.588 7        47.000    20587003.828 6  84300619.494 6        40.200
G17  24149275.914 5 126905280.415 5        35.100    24149298.270 4  98887349.137 4        25.700    24149297.953 6  98887286.133 6        36.900
G12  21918419.734 7 115182063.755 7        45.800    21918438.211 7  89752374.570 7        43.000    21918437.910 7  89752327.565 7        44.700
G06  22784014.844 6 119730987.247 6        39.900    22784032.637 5  93297023.757 5        35.600    22784033.078 7  93296931.761 7        42.200    22784035.645 7  89409591.694 7        47.000
G09  24523669.508 5 128872774.557 5        32.000    24523686.359 3 100420757.022 3        23.000    24523686.316 6 100420642.031 6        37.100    24523688.563 6  96236511.238 6        39.900
G22  25185951.961 5 132353075.482 5        30.500
G13  23195051.813 6 121890999.299 6        37.300    23195073.313 3  94979976.353 3        20.100
G25  23420782.063 6 123077043.147 6        37.600    23420803.426 5  95904263.252 5        30.500    23420803.660 6  95904188.250 6        38.400    23420806.887 7  91908143.381 7        45.000
G15  25375629.938 5 133349883.219 5        34.600    25375652.883 3 103909113.843 3        20.600    25375652.301 5 103909029.846 5        33.300
G11  21841807.445 7 114779676.640 7        45.100    21841820.754 5  89438879.747 5        35.000    21841820.824 7  89438802.743 7        47.900    21841826.016 8  85712243.446 8        50.700
> 2025  3 11 11  4 58.0000000  0 12       -.000183994000
G05  21111808.727 7 110943509.898 7        46.800    21111826.359 7  86449629.962 7        46.300    21111826.180 7  86449542.965 7        47.100
G19  21738786.188 7 114238366.100 7        43.000    21738805.266 5  89016874.661 5        32.200
G20  20587095.070 7 108186222.184 7        46.900    20587108.027 6  84301046.193 6        40.000
G17  24149724.102 5 126907632.012 5        35.300    24149745.664 4  98889181.568 4        25.900    24149745.594 6  98889118.564 6        36.900
G12  21918477.461 7 115182366.458 7        45.800    21918495.773 7  89752610.439 7        43.100    21918495.508 7  89752563.435 7        44.900
G06  22784136.820 6 119731628.492 6        39.800    22784154.566 5  93297523.433 5        35.800    22784154.605 7  93297431.434 7        42.000    22784157.715 7  89410070.541 7        47.000
G09  24524041.297 5 128874725.891 5        31.600    24524057.859 3 100422277.574 3        23.400    24524057.703 6 100422162.562 6        37.100    24524059.988 6  96237968.420 6        39.900
G22  25186479.047 5 132355840.139 5        30.700
G13  23194360.375 6 121887367.821 6        37.600    23194382.125 3  94977146.650 3        19.600
G25  23420533.180 6 123075734.821 6        38.000    23420554.430 5  95903243.772 5        30.700    23420554.563 6  95903168.767 6        38.600    23420557.895 7  91907166.376 7        44.900
G15  25374880.023 5 133345935.404 5        34.900    25374901.621 3 103906037.626 3        20.400    25374900.836 5 103905953.623 5        33.200
G11  21841772.961 7 114779497.238 7        45.200    21841786.770 5  89438739.955 5        34.600    21841786.668 7  89438662.946 7        47.700    21841791.914 8  85712109.473 8        50.800
> 2025  3 11 11  4 59.0000000  0 12       -.000184235000
G05  21111493.500 7 110941853.445 7        46.800    21111511.176 7  86448339.226 7        46.500    21111511.145 7  86448252.227 7        47.500
G19  21739149.117 7 114240273.588 7        43.000    21739168.406 5  89018361.012 5        32.500
